{
"type": "FeatureCollection",
"name": "Kotagede_1",
"crs": { "type": "name", "properties": { "name": "urn:ogc:def:crs:OGC:1.3:CRS84" } },
"features": [
{ "type": "Feature", "properties": { "OID_": 0, "Name": "Muiono", "FolderPath": "Kotagede.kml/Kotagede", "SymbolID": 0, "AltMode": -1, "Base": 0.0, "Snippet": null, "PopupInfo": null, "HasLabel": -1, "LabelID": 0 }, "geometry": { "type": "Point", "coordinates": [ 110.401388889000089, -7.805555555999945, 0.0 ] } },
{ "type": "Feature", "properties": { "OID_": 0, "Name": "Remi Oktaviano Sanjaya", "FolderPath": "Kotagede.kml/Kotagede", "SymbolID": 0, "AltMode": -1, "Base": 0.0, "Snippet": null, "PopupInfo": null, "HasLabel": -1, "LabelID": 0 }, "geometry": { "type": "Point", "coordinates": [ 110.401388889000089, -7.805555555999945, 0.0 ] } },
{ "type": "Feature", "properties": { "OID_": 0, "Name": "Slamet Purwanta", "FolderPath": "Kotagede.kml/Kotagede", "SymbolID": 0, "AltMode": -1, "Base": 0.0, "Snippet": null, "PopupInfo": null, "HasLabel": -1, "LabelID": 0 }, "geometry": { "type": "Point", "coordinates": [ 110.399722222000037, -7.818055555999933, 0.0 ] } },
{ "type": "Feature", "properties": { "OID_": 0, "Name": "Jasilah", "FolderPath": "Kotagede.kml/Kotagede", "SymbolID": 0, "AltMode": -1, "Base": 0.0, "Snippet": null, "PopupInfo": null, "HasLabel": -1, "LabelID": 0 }, "geometry": { "type": "Point", "coordinates": [ 110.399722222000037, -7.818333332999941, 0.0 ] } },
{ "type": "Feature", "properties": { "OID_": 0, "Name": "Wahono", "FolderPath": "Kotagede.kml/Kotagede", "SymbolID": 1, "AltMode": -1, "Base": 0.0, "Snippet": null, "PopupInfo": null, "HasLabel": -1, "LabelID": 0 }, "geometry": { "type": "Point", "coordinates": [ 110.383408354000039, -7.817780069999969, 0.0 ] } },
{ "type": "Feature", "properties": { "OID_": 0, "Name": "Sumadiyo Trisno Sumarto", "FolderPath": "Kotagede.kml/Kotagede", "SymbolID": 0, "AltMode": -1, "Base": 0.0, "Snippet": null, "PopupInfo": null, "HasLabel": -1, "LabelID": 0 }, "geometry": { "type": "Point", "coordinates": [ 110.400194444000078, -7.818611110999939, 0.0 ] } },
{ "type": "Feature", "properties": { "OID_": 0, "Name": "Siti Poniyah", "FolderPath": "Kotagede.kml/Kotagede", "SymbolID": 0, "AltMode": -1, "Base": 0.0, "Snippet": null, "PopupInfo": null, "HasLabel": -1, "LabelID": 0 }, "geometry": { "type": "Point", "coordinates": [ 110.399722222000037, -7.8175, 0.0 ] } },
{ "type": "Feature", "properties": { "OID_": 0, "Name": "Wartini Subekti", "FolderPath": "Kotagede.kml/Kotagede", "SymbolID": 0, "AltMode": -1, "Base": 0.0, "Snippet": null, "PopupInfo": null, "HasLabel": -1, "LabelID": 0 }, "geometry": { "type": "Point", "coordinates": [ 110.398055556000088, -7.823055555999929, 0.0 ] } },
{ "type": "Feature", "properties": { "OID_": 0, "Name": "Dalmini", "FolderPath": "Kotagede.kml/Kotagede", "SymbolID": 0, "AltMode": -1, "Base": 0.0, "Snippet": null, "PopupInfo": null, "HasLabel": -1, "LabelID": 0 }, "geometry": { "type": "Point", "coordinates": [ 110.393611111000041, -7.825555555999927, 0.0 ] } },
{ "type": "Feature", "properties": { "OID_": 0, "Name": "Tumadi", "FolderPath": "Kotagede.kml/Kotagede", "SymbolID": 0, "AltMode": -1, "Base": 0.0, "Snippet": null, "PopupInfo": null, "HasLabel": -1, "LabelID": 0 }, "geometry": { "type": "Point", "coordinates": [ 110.403333333000035, -7.828333332999932, 0.0 ] } },
{ "type": "Feature", "properties": { "OID_": 0, "Name": "Ronny Oktavianto Slamet", "FolderPath": "Kotagede.kml/Kotagede", "SymbolID": 0, "AltMode": -1, "Base": 0.0, "Snippet": null, "PopupInfo": null, "HasLabel": -1, "LabelID": 0 }, "geometry": { "type": "Point", "coordinates": [ 110.403333333000035, -7.82861111099993, 0.0 ] } },
{ "type": "Feature", "properties": { "OID_": 0, "Name": "Budi Wahyono", "FolderPath": "Kotagede.kml/Kotagede", "SymbolID": 0, "AltMode": -1, "Base": 0.0, "Snippet": null, "PopupInfo": null, "HasLabel": -1, "LabelID": 0 }, "geometry": { "type": "Point", "coordinates": [ 110.404166667000084, -7.82861111099993, 0.0 ] } },
{ "type": "Feature", "properties": { "OID_": 0, "Name": "Sugeng Haryono", "FolderPath": "Kotagede.kml/Kotagede", "SymbolID": 0, "AltMode": -1, "Base": 0.0, "Snippet": null, "PopupInfo": null, "HasLabel": -1, "LabelID": 0 }, "geometry": { "type": "Point", "coordinates": [ 110.403888889000086, -7.828888888999927, 0.0 ] } },
{ "type": "Feature", "properties": { "OID_": 0, "Name": "Murwadi", "FolderPath": "Kotagede.kml/Kotagede", "SymbolID": 0, "AltMode": -1, "Base": 0.0, "Snippet": null, "PopupInfo": null, "HasLabel": -1, "LabelID": 0 }, "geometry": { "type": "Point", "coordinates": [ 110.404166667000084, -7.828888888999927, 0.0 ] } },
{ "type": "Feature", "properties": { "OID_": 0, "Name": "Yose Rizal Tiarto", "FolderPath": "Kotagede.kml/Kotagede", "SymbolID": 0, "AltMode": -1, "Base": 0.0, "Snippet": null, "PopupInfo": null, "HasLabel": -1, "LabelID": 0 }, "geometry": { "type": "Point", "coordinates": [ 110.401111111000034, -7.824166666999929, 0.0 ] } },
{ "type": "Feature", "properties": { "OID_": 0, "Name": "Purwanto", "FolderPath": "Kotagede.kml/Kotagede", "SymbolID": 0, "AltMode": -1, "Base": 0.0, "Snippet": null, "PopupInfo": null, "HasLabel": -1, "LabelID": 0 }, "geometry": { "type": "Point", "coordinates": [ 110.404444444000035, -7.827777777999927, 0.0 ] } },
{ "type": "Feature", "properties": { "OID_": 0, "Name": "Raharjo", "FolderPath": "Kotagede.kml/Kotagede", "SymbolID": 0, "AltMode": -1, "Base": 0.0, "Snippet": null, "PopupInfo": null, "HasLabel": -1, "LabelID": 0 }, "geometry": { "type": "Point", "coordinates": [ 110.403611111000089, -7.825555555999927, 0.0 ] } },
{ "type": "Feature", "properties": { "OID_": 0, "Name": "Nandi Mintoro", "FolderPath": "Kotagede.kml/Kotagede", "SymbolID": 0, "AltMode": -1, "Base": 0.0, "Snippet": null, "PopupInfo": null, "HasLabel": -1, "LabelID": 0 }, "geometry": { "type": "Point", "coordinates": [ 110.402222222000034, -7.821388888999934, 0.0 ] } },
{ "type": "Feature", "properties": { "OID_": 0, "Name": "Moh Yusuf Arif", "FolderPath": "Kotagede.kml/Kotagede", "SymbolID": 0, "AltMode": -1, "Base": 0.0, "Snippet": null, "PopupInfo": null, "HasLabel": -1, "LabelID": 0 }, "geometry": { "type": "Point", "coordinates": [ 110.403055556000083, -7.823888888999932, 0.0 ] } },
{ "type": "Feature", "properties": { "OID_": 0, "Name": "Sukasman", "FolderPath": "Kotagede.kml/Kotagede", "SymbolID": 0, "AltMode": -1, "Base": 0.0, "Snippet": null, "PopupInfo": null, "HasLabel": -1, "LabelID": 0 }, "geometry": { "type": "Point", "coordinates": [ 110.401944444000037, -7.819722221999939, 0.0 ] } },
{ "type": "Feature", "properties": { "OID_": 0, "Name": "Rukimin", "FolderPath": "Kotagede.kml/Kotagede", "SymbolID": 0, "AltMode": -1, "Base": 0.0, "Snippet": null, "PopupInfo": null, "HasLabel": -1, "LabelID": 0 }, "geometry": { "type": "Point", "coordinates": [ 110.401944444000037, -7.826944443999935, 0.0 ] } },
{ "type": "Feature", "properties": { "OID_": 0, "Name": "Walijah Hadi S", "FolderPath": "Kotagede.kml/Kotagede", "SymbolID": 0, "AltMode": -1, "Base": 0.0, "Snippet": null, "PopupInfo": null, "HasLabel": -1, "LabelID": 0 }, "geometry": { "type": "Point", "coordinates": [ 110.401944444000037, -7.826944443999935, 0.0 ] } },
{ "type": "Feature", "properties": { "OID_": 0, "Name": "Narji Mulyono", "FolderPath": "Kotagede.kml/Kotagede", "SymbolID": 0, "AltMode": -1, "Base": 0.0, "Snippet": null, "PopupInfo": null, "HasLabel": -1, "LabelID": 0 }, "geometry": { "type": "Point", "coordinates": [ 110.404166667000084, -7.826388888999929, 0.0 ] } }
]
}
